name: Luxembourg to Liege-Guillemins
transport: train
start:
  lat: 49.599996
  lon: 6.134167
  name: Luxembourg
  datetime: '2025-09-14T07:16:00Z'
  offset_minutes: 0
end:
  lat: 50.624443
  lon: 5.566669
  name: Liege-Guillemins
  offset_minutes: 159
waypoints:
- lat: 49.618613
  lon: 6.132774
  name: Pfaffenthal-Kirchberg
  offset_minutes: 3
  stopped_minutes: 1
- lat: 49.751941
  lon: 6.110274
  name: Mersch
  offset_minutes: 16
  stopped_minutes: 1
- lat: 49.847226
  lon: 6.106112
  name: Ettelbruck
  offset_minutes: 27
  stopped_minutes: 2
- lat: 49.896667
  lon: 6.092223
  name: Michelau
  offset_minutes: 34
- lat: 49.921109
  lon: 6.053336
  name: Goebelsmühle
  offset_minutes: 38
- lat: 49.948607
  lon: 6.022224
  name: Kautenbach
  offset_minutes: 42
  stopped_minutes: 2
- lat: 49.98833
  lon: 6.00056
  name: Wilwerwiltz
  offset_minutes: 48
  stopped_minutes: 1
- lat: 50.016943
  lon: 6.007221
  name: Drauffelt
  offset_minutes: 52
  stopped_minutes: 1
- lat: 50.061664
  lon: 6.024723
  name: Clervaux
  offset_minutes: 58
  stopped_minutes: 2
- lat: 50.119168
  lon: 5.990834
  name: Troisvierges
  offset_minutes: 68
  stopped_minutes: 9
- lat: 50.189446
  lon: 5.953888
  name: Gouvy
  offset_minutes: 84
  stopped_minutes: 3
- lat: 50.278888
  lon: 5.909167
  name: Vielsalm
  offset_minutes: 96
- lat: 50.368331
  lon: 5.873615
  name: Trois-Ponts
  offset_minutes: 105
  stopped_minutes: 1
- lat: 50.39111
  lon: 5.880554
  name: Coo
  offset_minutes: 109
  stopped_minutes: 1
- lat: 50.473055
  lon: 5.672499
  name: Aywaille
  offset_minutes: 127
- lat: 50.48333
  lon: 5.587497
  name: Rivage
  offset_minutes: 134
  stopped_minutes: 1
- lat: 50.509165
  lon: 5.578885
  name: Poulseur
  offset_minutes: 139
- lat: 50.530559
  lon: 5.572503
  name: Esneux
  offset_minutes: 143
- lat: 50.613053
  lon: 5.599722
  name: Angleur
  offset_minutes: 153
  stopped_minutes: 1
